[{"name":"Alta","lat":69.97790278566691,"lon":23.30508605072015},{"name":"Bergen","lat":60.38693027274031,"lon":5.30993935348603},{"name":"Bodø","lat":67.28523077499617,"lon":14.379956886556684},{"name":"Drammen","lat":59.73362755903568,"lon":10.23381663412178},{"name":"Egersund","lat":58.45556153761157,"lon":5.980445774274081},{"name":"Flora hamn","lat":61.61240688382038,"lon":5.096263978780254},{"name":"Borg","lat":59.26816314211734,"lon":11.076524415000303},{"name":"Grenland Havn IKS","lat":59.05061919946807,"lon":9.695728335982672},{"name":"Hammerfest","lat":70.62727849778254,"lon":23.640661776787287},{"name":"Harstad","lat":68.57671690866388,"lon":16.527948229788873},{"name":"Karmsund","lat":59.33781381819496,"lon":5.306904056068834},{"name":"Kirkenes Havnevesen","lat":69.72876645316576,"lon":30.070888150310424},{"name":"Kristiansand","lat":58.15616348713191,"lon":8.035319975316153},{"name":"Kristiansund","lat":63.114052501205414,"lon":7.739620443672225},{"name":"Larvik","lat":59.04049999527628,"lon":10.04739978845792},{"name":"Longyearbyen","lat":78.22692763238099,"lon":15.624088083591781},{"name":"Mo i Rana","lat":66.3283474805174,"lon":14.145071101397434},{"name":"Molde og Romsdal Havn","lat":62.76861250228364,"lon":7.44291627248578},{"name":"Moss","lat":59.429842729687465,"lon":10.655090711334825},{"name":"Narvik","lat":68.51818510407443,"lon":16.961078283824417},{"name":"Nordkapp/Honningsvåg","lat":70.99231396661261,"lon":25.967301504447818},{"name":"Oslo","lat":59.88811281782718,"lon":10.759327034427887},{"name":"Tromsø","lat":69.68009620408499,"lon":18.998016435077194},{"name":"Trondheim","lat":63.4419034463027,"lon":10.406466495626312},{"name":"Tønsberg","lat":59.25884812939658,"lon":10.424831414044029},{"name":"Ålesund","lat":62.47500499934245,"lon":6.151434346118698},{"name":"Melkøya","lat":70.68457667578478,"lon":23.599525086775756},{"name":"Tjeldbergodden","lat":63.41346477949136,"lon":8.683849554689303},{"name":"Mongstadbase AS","lat":60.817878057157586,"lon":5.032820854266438},{"name":"Sture","lat":60.61885955049855,"lon":4.856980820987639},{"name":"Kårstø","lat":59.2691532926164,"lon":5.516944882254508},{"name":"Stavanger","lat":58.924433401834584,"lon":5.599327160102481},{"name":"Arendal","lat":58.461693369476734,"lon":8.776982917268},{"name":"Bremanger","lat":61.766616890650845,"lon":4.879103222014189},{"name":"Brønnøy Havn KF","lat":65.47617798521675,"lon":12.210798628223724},{"name":"Båtsfjord","lat":70.63613395161651,"lon":29.73255357514366},{"name":"Farsund","lat":58.092599809200024,"lon":6.8066928249186205},{"name":"Flekkefjord","lat":58.29189978230516,"lon":6.6629918495037455},{"name":"Gamvik-Nordkyn Havn","lat":71.03600019214157,"lon":27.845796692349467},{"name":"Hadsel","lat":68.5702081934231,"lon":14.913522706522429},{"name":"Halden","lat":59.11692785843195,"lon":11.3765079186637},{"name":"Havøysund","lat":70.99500423468106,"lon":24.66664669841594},{"name":"Holmestrand","lat":59.53449999626658,"lon":10.220399833417165},{"name":"Indre Trondheimsfjord Havnevesen","lat":63.78549999931975,"lon":11.440799977127323},{"name":"Kragerø","lat":58.86929998932014,"lon":9.414799509355682},{"name":"Lenvik","lat":69.21839291472486,"lon":18.07212294085929},{"name":"Lødingen","lat":68.36506454526545,"lon":15.337352865989375},{"name":"Mandal","lat":58.04016028608243,"lon":7.152323902609265},{"name":"Nordfjord","lat":61.933763209509586,"lon":5.113644310798085},{"name":"Sandefjord","lat":59.12649999625332,"lon":10.225799836225423},{"name":"Sandnes","lat":58.85197910643404,"lon":5.743780305436665},{"name":"Sandnessjoen","lat":66.02199999983401,"lon":12.639299998712078},{"name":"Sortland","lat":68.69676140841848,"lon":15.419581063495198},{"name":"Stord","lat":59.780863641703874,"lon":5.503630636632437},{"name":"Geirangerfjord Cruise Hamn","lat":62.08759774577755,"lon":6.8707939234918864},{"name":"Vadsø","lat":70.07057005809078,"lon":29.737059174776977},{"name":"Vikna","lat":64.85966564039141,"lon":11.237649905437063},{"name":"Svolvær havn","lat":68.22199553096793,"lon":14.555392768347739},{"name":"Vardø","lat":70.36473409090385,"lon":31.030046475703667},{"name":"Horten havnevesen KF","lat":59.412966777705506,"lon":10.487636055397928},{"name":"Alstahaug Havnevesen KF","lat":66.02500666382744,"lon":12.636316327561437},{"name":"Måløy","lat":61.93967264121457,"lon":5.124961398713497},{"name":"Grimstad","lat":58.33805640350116,"lon":8.599077784228445},{"name":"Hvaler","lat":59.02198033508545,"lon":11.036275566678867},{"name":"Lyngdal","lat":58.118286150533685,"lon":7.049137927601202},{"name":"Mosjøen","lat":65.85468263365769,"lon":13.185632766961636},{"name":"Berlevåg","lat":70.85959639297937,"lon":29.10676747949609},{"name":"Høyanger","lat":61.21660479235093,"lon":6.0659600554363315},{"name":"Loppa","lat":70.24278735604302,"lon":22.346560774457217},{"name":"Skjervøy","lat":70.03169604982737,"lon":20.983558212965864}]